[
  {
    "id": 1,
    "title": "Food Bank Volunteer",
    "organization": "City Food Bank",
    "location": "Accra, Ghana",
    "latitude": 5.560014,
    "longitude": -0.205744,
    "coordinates": [-0.205744, 5.560014],
    "date": "2025-08-15",
    "category": "Food Distribution",
    "description": "Assist with sorting and distributing food to families in need.",
    "contact": "info@cityfoodbank.org"
  },
  {
    "id": 2,
    "title": "Beach Cleanup",
    "organization": "Green Coast Initiative",
    "location": "Labadi Beach, Accra",
    "latitude": 5.5608,
    "longitude": -0.1423,
    "coordinates": [-0.1423, 5.5608],
    "date": "2025-08-20",
    "category": "Environment",
    "description": "Join us to clean up the beach and protect marine life.",
    "contact": "volunteer@greencoast.org"
  },
  {
    "id": 3,
    "title": "Community Health Awareness",
    "organization": "Healthy Living NGO",
    "location": "Osu, Accra",
    "latitude": 5.5502,
    "longitude": -0.1860,
    "coordinates": [-0.1860, 5.5502],
    "date": "2025-09-05",
    "category": "Health",
    "description": "Help organize health talks and distribute awareness materials.",
    "contact": "contact@healthyliving.org"
  },
  {
    "id": 4,
    "title": "Animal Shelter Support",
    "organization": "Accra Animal Rescue",
    "location": "East Legon, Accra",
    "latitude": 5.6467,
    "longitude": -0.1730,
    "coordinates": [-0.1730, 5.6467],
    "date": "2025-09-10",
    "category": "Animal Welfare",
    "description": "Feed, bathe, and play with rescued animals.",
    "contact": "rescue@accraanimals.org"
  },
  {
    "id": 5,
    "title": "Remote Fundraising Assistant",
    "organization": "Ghana Education Fund",
    "location": "Online / Accra HQ",
    "latitude": 5.5600,
    "longitude": -0.1973,
    "coordinates": [-0.1973, 5.5600],
    "date": "Ongoing",
    "category": "Education",
    "description": "Help raise funds for school supplies and scholarships by reaching out to potential donors via email and social media. This is a fully remote role.",
    "contact": "donate@ghanaedufund.org"
  },
  {
    "id": 6,
    "title": "Online Mentorship Program",
    "organization": "Youth Inspire Initiative",
    "location": "Online",
    "latitude": 5.6037,
    "longitude": -0.1870,
    "coordinates": [-0.1870, 5.6037],
    "date": "Ongoing",
    "category": "Mentorship",
    "description": "Provide career guidance and support to young people through virtual meetings and online resources.",
    "contact": "mentor@youthinspire.org"
  },
  {
    "id": 7,
    "title": "Disaster Relief Donations",
    "organization": "Hope for Humanity",
    "location": "Kumasi, Ghana",
    "latitude": 6.6928,
    "longitude": -1.6230,
    "coordinates": [-1.6230, 6.6928],
    "date": "Ongoing",
    "category": "Humanitarian Aid",
    "description": "Support our disaster relief efforts by donating money for emergency supplies. No in-person service required.",
    "contact": "relief@hopehumanity.org"
  },
  {
    "id": 8,
    "title": "Tree Planting Sponsorship",
    "organization": "Green Earth Ghana",
    "location": "Cape Coast, Ghana",
    "latitude": 5.1053,
    "longitude": -1.2466,
    "coordinates": [-1.2466, 5.1053],
    "date": "2025-09-25",
    "category": "Environment",
    "description": "Sponsor a tree planting project to help combat climate change. We will send updates and photos of your sponsored trees.",
    "contact": "sponsor@greenearth.org"
  }
]
